<?xml version="1.0" encoding="UTF-8"?>
<gpx xmlns="http://www.topografix.com/GPX/1/1" xmlns:xsi="http://www.w3.org/2001/XMLSchema-instance" creator="SkyVector" version="1.1" xsi:schemaLocation="http://www.topografix.com/GPX/1/1 http://www.topografix.com/GPX/1/1/gpx.xsd">
  <rte>
    <name>SKRG-MHTG</name>
    <rtept lat="6.164461" lon="-75.423000">
      <name>SKRG</name>
      <overfly>false</overfly>
    </rtept>
    <rtept lat="6.540000" lon="-76.226667">
      <name>KOTIN</name>
      <overfly>false</overfly>
    </rtept>
    <rtept lat="7.568056" lon="-77.733083">
      <name>IVROS</name>
      <overfly>false</overfly>
    </rtept>
    <rtept lat="8.787147" lon="-79.560633">
      <name>TBG</name>
      <overfly>false</overfly>
    </rtept>
    <rtept lat="9.983667" lon="-84.236161">
      <name>TIO</name>
      <overfly>false</overfly>
    </rtept>
    <rtept lat="14.028919" lon="-87.229111">
      <name>TNT</name>
      <overfly>false</overfly>
    </rtept>
    <rtept lat="14.060256" lon="-87.217411">
      <name>MHTG</name>
      <overfly>false</overfly>
    </rtept>

  </rte>
</gpx>
